{
  "title": "The Wandering of Giordano Bruno",
  "subtitle": "A heretic's road across Europe, 1548–1600",
  "subject": "giordano-bruno",
  "theme": "noir",
  "design_note": "Alchemical Noir: the original for this template — a single luminous route across a darkened Europe, ending where the reader who plays it through already fears. Evidence lives in the line: solid attested, dashed reconstructed.",
  "provenance_note": "Itinerary after standard biographies (Frances Yates, Giordano Bruno and the Hermetic Tradition; Ingrid Rowland, Giordano Bruno: Philosopher/Heretic; Hilary Gatti). Datings are approximate where marked. Travel legs marked 'inferred' have no direct documentary record and reconstruct the most likely route between attested locations.",
  "stops": [
    {"order":1,"place":"Nola","lat":40.9290,"lon":14.5278,"year_start":1548,"year_end":1562,"dwell":14,
     "what":"Born Filippo Bruno in the shadow of Vesuvius; the small town whose name he carried as 'the Nolan'.","evidence":"attested","leg_evidence":null,
     "source":"Rowland 2008, ch.1"},
    {"order":2,"place":"Naples","lat":40.8518,"lon":14.2681,"year_start":1562,"year_end":1565,"dwell":3,
     "what":"Studies humanities and dialectic; exposed to the memory arts and Lullism that shape his whole project.","evidence":"attested","leg_evidence":"attested",
     "source":"Rowland 2008"},
    {"order":3,"place":"Rome","lat":41.9028,"lon":12.4964,"year_start":1565,"year_end":1576,"dwell":11,
     "what":"Enters the Dominican order at San Domenico Maggiore; takes the name Giordano. Doubts on the Trinity bring an indictment for heresy — he flees, discarding his habit.","evidence":"attested","leg_evidence":"attested",
     "source":"Yates 1964; Rowland 2008"},
    {"order":4,"place":"Geneva","lat":46.2044,"lon":6.1432,"year_start":1579,"year_end":1579,"dwell":1,
     "what":"After three obscure years wandering northern Italy, surfaces in Calvinist Geneva; quickly clashes with the authorities and moves on.","evidence":"attested","leg_evidence":"inferred",
     "source":"Rowland 2008 (the 1576–79 route is undocumented)"},
    {"order":5,"place":"Toulouse","lat":43.6047,"lon":1.4442,"year_start":1579,"year_end":1581,"dwell":2,
     "what":"Lectures on Aristotle and the sphere; earns a doctorate and a teaching post.","evidence":"attested","leg_evidence":"attested",
     "source":"Gatti 1999"},
    {"order":6,"place":"Paris","lat":48.8566,"lon":2.3522,"year_start":1581,"year_end":1583,"dwell":2,
     "what":"Patronage of Henri III. Publishes De umbris idearum on the art of memory; his reputation as a magus is made.","evidence":"attested","leg_evidence":"attested",
     "source":"Yates 1964"},
    {"order":7,"place":"London","lat":51.5074,"lon":-0.1278,"year_start":1583,"year_end":1585,"dwell":2,
     "what":"Lodges at the French embassy. Publishes the great Italian dialogues — La cena de le ceneri, De l'infinito universo e mondi — defending an infinite, Copernican cosmos.","evidence":"attested","leg_evidence":"attested",
     "source":"Yates 1964; Gatti 1999"},
    {"order":8,"place":"Oxford","lat":51.7520,"lon":-1.2577,"year_start":1583,"year_end":1583,"dwell":1,
     "what":"Lectures on the immortality of the soul and Copernicus; the dons rebuff him. A brief, bruising excursion.","evidence":"approximate","leg_evidence":"attested",
     "source":"Cena de le ceneri (his own account, partisan)"},
    {"order":9,"place":"Wittenberg","lat":51.8665,"lon":12.6427,"year_start":1586,"year_end":1588,"dwell":2,
     "what":"Teaches at the Lutheran university; a rare settled, productive interval. Delivers a famous valedictory oration.","evidence":"attested","leg_evidence":"inferred",
     "source":"Rowland 2008 (route via Marburg reconstructed)"},
    {"order":10,"place":"Prague","lat":50.0755,"lon":14.4378,"year_start":1588,"year_end":1588,"dwell":1,
     "what":"Briefly at the court of Rudolf II; dedicates a work on mathematics and magic to the emperor.","evidence":"attested","leg_evidence":"attested",
     "source":"Gatti 1999"},
    {"order":11,"place":"Frankfurt","lat":50.1109,"lon":8.6821,"year_start":1590,"year_end":1591,"dwell":1,
     "what":"At the great book fair; sees the Latin poems (De triplici minimo, De monade) through the press — his mature metaphysics of the minimum.","evidence":"attested","leg_evidence":"inferred",
     "source":"Rowland 2008 (Helmstedt interlude omitted)"},
    {"order":12,"place":"Venice","lat":45.4408,"lon":12.3155,"year_start":1591,"year_end":1592,"dwell":1,
     "what":"Lured back to Italy by the patrician Giovanni Mocenigo, ostensibly to teach the art of memory. Mocenigo denounces him to the Inquisition.","evidence":"attested","leg_evidence":"attested",
     "source":"Inquisition trial records, Venice 1592"},
    {"order":13,"place":"Rome","lat":41.8902,"lon":12.4922,"year_start":1593,"year_end":1600,"dwell":7,
     "what":"Extradited to Rome. Seven years imprisoned and interrogated; refuses to recant. On 17 February 1600 he is burned at the Campo de' Fiori, a nail driven through his tongue.","evidence":"attested","leg_evidence":"attested",
     "source":"Roman trial summary; Firpo, Il processo di Giordano Bruno"}
  ]
}
